[
  {
    "fsq_id": "1",
    "name": "StrangeLove Coffee",
    "location": {
      "address": "401 Richmond St W",
      "neighborhood": ["Richmond and Spadina"]
    }
  },
  {
    "fsq_id": "2",
    "name": "Dark Horse Coffee",
    "location": {
      "address": "401 Richmond St W",
      "neighborhood": ["Richmond and Spadina"]
    }
  },
  {
    "fsq_id": "3",
    "name": "Blue Coffee",
    "location": {
      "address": "401 Richmond St W",
      "neighborhood": ["Richmond and Spadina"]
    }
  },
  {
    "fsq_id": "4",
    "name": "Caf√© Mozart",
    "location": {
      "address": "401 Richmond St W",
      "neighborhood": ["Richmond and Spadina"]
    }
  },
  {
    "fsq_id": "5",
    "name": "Nero Coffee",
    "location": {
      "address": "401 Richmond St W",
      "neighborhood": ["Richmond and Spadina"]
    }
  },
  {
    "fsq_id": "6",
    "name": "6 Coffee",
    "location": {
      "address": "983 Queen St E, Toronto, ON M4M 1K2",
      "neighborhood": ["at King and Spadina"]
    }
  },
  {
    "fsq_id": "7",
    "name": "7 Coffee",
    "location": {
      "address": "401 Richmond St W",
      "neighborhood": ["Richmond and Spadina"]
    }
  },
  {
    "fsq_id": "8",
    "name": "8 Coffee",
    "location": {
      "address": "401 Richmond St W",
      "neighborhood": ["Richmond and Spadina"]
    }
  },
  {
    "fsq_id": "9",
    "name": "9 Coffee",
    "location": {
      "address": "401 Richmond St W",
      "neighborhood": ["Richmond and Spadina"]
    }
  },
  {
    "fsq_id": "10",
    "name": "10 Coffee",
    "location": {
      "address": "401 Richmond St W",
      "neighborhood": ["Richmond and Spadina"]
    }
  }
]
